{"type":"FeatureCollection","features":[{"type":"Feature","geometry":{"type":"Point","coordinates":[137.40801426440055,34.70314452439543]},"properties":{"name":"駐輪場","icon":"bicycle_parking"}},{"type":"Feature","geometry":{"type":"Point","coordinates":[137.4119540008814,34.701284281474756]},"properties":{"name":"駐輪場","icon":"bicycle_parking"}},{"type":"Feature","geometry":{"type":"Point","coordinates":[137.40822288052908,34.70081644799835]},"properties":{"name":"駐輪場","icon":"bicycle_parking"}},{"type":"Feature","geometry":{"type":"Point","coordinates":[137.41237974268802,34.69973709958798]},"properties":{"name":"非常勤講師等宿泊施設「ひばり荘」"}},{"type":"Feature","geometry":{"type":"Point","coordinates":[137.40555906167305,34.70173277092232]},"properties":{"name":"陸上競技場","icon":"athletic"}},{"type":"Feature","geometry":{"type":"Point","coordinates":[137.41014201695822,34.70089372001328]},"properties":{"name":"附属図書館","icon":"library"}},{"type":"Feature","geometry":{"type":"Point","coordinates":[137.4051240972156,34.700456507912165]},"properties":{"name":"野球場","icon":"baseball"}},{"type":"Feature","geometry":{"type":"Point","coordinates":[137.41179425274566,34.70035227347452]},"properties":{"name":"車庫"}},{"type":"Feature","geometry":{"type":"Point","coordinates":[137.40755232434236,34.699945511978896]},"properties":{"name":"課外活動集会棟"}},{"type":"Feature","geometry":{"type":"Point","coordinates":[137.4075970516243,34.70008783700398]},"properties":{"name":"課外活動共用施設"}},{"type":"Feature","geometry":{"type":"Point","coordinates":[137.40851137062032,34.70315417933436]},"properties":{"name":"自然エネルギー実験棟"}},{"type":"Feature","geometry":{"type":"Point","coordinates":[137.40893070074463,34.70079612966869]},"properties":{"name":"福利施設","icon":"canteen"}},{"type":"Feature","geometry":{"type":"Point","coordinates":[137.4120600795202,34.699909852317134]},"properties":{"name":"研究者(短期滞在)宿泊施設「ヴィレッジ天伯」"}},{"type":"Feature","geometry":{"type":"Point","coordinates":[137.406929408027,34.70004451606209]},"properties":{"name":"生活廃水処理施設"}},{"type":"Feature","geometry":{"type":"Point","coordinates":[137.4093572396468,34.7032207517648]},"properties":{"name":"環境防災実験棟"}},{"type":"Feature","geometry":{"type":"Point","coordinates":[137.4133954552609,34.70072085207218]},"properties":{"name":"正門"}},{"type":"Feature","geometry":{"type":"Point","coordinates":[137.41015695076948,34.70289261683621]},"properties":{"name":"次世代半導体・センサ科学研究所(IRES²)"}},{"type":"Feature","geometry":{"type":"Point","coordinates":[137.41228803938225,34.70141861789263]},"properties":{"name":"東駐車場","icon":"parking"}},{"type":"Feature","geometry":{"type":"Point","coordinates":[137.41326352920913,34.70014870359407]},"properties":{"name":"東第2駐車場","icon":"parking"}},{"type":"Feature","geometry":{"type":"Point","coordinates":[137.4076119605361,34.70256165137498]},"properties":{"name":"教育研究基盤センター"}},{"type":"Feature","geometry":{"type":"Point","coordinates":[137.40699326777212,34.702555998425225]},"properties":{"name":"放射線実験棟"}},{"type":"Feature","geometry":{"type":"Point","coordinates":[137.4096383163631,34.70085238821366]},"properties":{"name":"情報メディア基盤センター・IT活用教育センター"}},{"type":"Feature","geometry":{"type":"Point","coordinates":[137.40452550410185,34.701478475280354]},"properties":{"name":"弓道場","icon":"kyudo"}},{"type":"Feature","geometry":{"type":"Point","coordinates":[137.40689972848418,34.70023362240232]},"properties":{"name":"実験廃水処理施設"}},{"type":"Feature","geometry":{"type":"Point","coordinates":[137.4077285910266,34.702042297352165]},"properties":{"name":"実験実習工場"}},{"type":"Feature","geometry":{"type":"Point","coordinates":[137.41308816734335,34.70055767468848]},"properties":{"name":"守衛所"}},{"type":"Feature","geometry":{"type":"Point","coordinates":[137.40643750073622,34.70311622530241]},"properties":{"name":"学生宿舎F棟","icon":"dormitory"}},{"type":"Feature","geometry":{"type":"Point","coordinates":[137.4048798453893,34.702508982480154]},"properties":{"name":"学生宿舎E棟","icon":"dormitory"}},{"type":"Feature","geometry":{"type":"Point","coordinates":[137.4042217833886,34.70249391146767]},"properties":{"name":"学生宿舎D棟","icon":"dormitory"}},{"type":"Feature","geometry":{"type":"Point","coordinates":[137.40436684974998,34.70286294344531]},"properties":{"name":"学生宿舎C棟","icon":"dormitory"}},{"type":"Feature","geometry":{"type":"Point","coordinates":[137.4048630432007,34.703043034668]},"properties":{"name":"学生宿舎B棟","icon":"dormitory"}},{"type":"Feature","geometry":{"type":"Point","coordinates":[137.4053941065145,34.70296218547591]},"properties":{"name":"学生宿舎A棟","icon":"dormitory"}},{"type":"Feature","geometry":{"type":"Point","coordinates":[137.4129824257398,34.6993360942878]},"properties":{"name":"国際交流会館"}},{"type":"Feature","geometry":{"type":"Point","coordinates":[137.40984749148794,34.70321849334066]},"properties":{"name":"固体機能デバイス研究施設"}},{"type":"Feature","geometry":{"type":"Point","coordinates":[137.41104305330663,34.69997416553386]},"properties":{"name":"南駐車場","icon":"parking"}},{"type":"Feature","geometry":{"type":"Point","coordinates":[137.40749730161315,34.703085860646326]},"properties":{"name":"北駐車場","icon":"parking"}},{"type":"Feature","geometry":{"type":"Point","coordinates":[137.40593534462562,34.70307923186731]},"properties":{"name":"共用棟"}},{"type":"Feature","geometry":{"type":"Point","coordinates":[137.4064289989908,34.701153717745484]},"properties":{"name":"健康支援センター","icon":"health_care"}},{"type":"Feature","geometry":{"type":"Point","coordinates":[137.40595618029727,34.70103825765955]},"properties":{"name":"体育館","icon":"gym"}},{"type":"Feature","geometry":{"type":"Point","coordinates":[137.41119865745355,34.70084853864866]},"properties":{"name":"事務局"}},{"type":"Feature","geometry":{"type":"Point","coordinates":[137.4101472129351,34.70327783462086]},"properties":{"name":"ベンチャー・ビジネス・ラボラトリー"}},{"type":"Feature","geometry":{"type":"Point","coordinates":[137.40593184779016,34.70060540139768]},"properties":{"name":"プール","icon":"pool"}},{"type":"Feature","geometry":{"type":"Point","coordinates":[137.41275944830795,34.70087834660231]},"properties":{"name":"バス停","icon":"bus_stop"}},{"type":"Feature","geometry":{"type":"Point","coordinates":[137.4067071611545,34.70117822963961]},"properties":{"name":"トレーニングジム","icon":"training_gym"}},{"type":"Feature","geometry":{"type":"Point","coordinates":[137.40646625132825,34.700638102418296]},"properties":{"name":"テニスコート","icon":"tennis"}},{"type":"Feature","geometry":{"type":"Point","coordinates":[137.40761338863814,34.70060045557979]},"properties":{"name":"サカキパーク","icon":"park"}},{"type":"Feature","geometry":{"type":"Point","coordinates":[137.40660597995037,34.70116559423589]},"properties":{"name":"クラブハウス"}},{"type":"Feature","geometry":{"type":"Point","coordinates":[137.40892831119538,34.703169246659286]},"properties":{"name":"インキュベーション棟"}},{"type":"Feature","geometry":{"type":"Point","coordinates":[137.41068275724376,34.70091171903043]},"properties":{"name":"アウトリーチ活動棟"}},{"type":"Feature","geometry":{"type":"Point","coordinates":[137.4059134877475,34.702625695548406]},"properties":{"name":"TUTグローバルハウス(G棟)","icon":"dormitory"}},{"type":"Feature","geometry":{"type":"Point","coordinates":[137.40701550478843,34.702352267687615]},"properties":{"name":"I-2研究棟"}},{"type":"Feature","geometry":{"type":"Point","coordinates":[137.40707192164774,34.701898597734925]},"properties":{"name":"I-1研究棟"}},{"type":"Feature","geometry":{"type":"Point","coordinates":[137.4073236251395,34.70113061190088]},"properties":{"name":"G研究棟","icon":"g_building"}},{"type":"Feature","geometry":{"type":"Point","coordinates":[137.40750558867614,34.70137680068535]},"properties":{"name":"G1研究実験棟","icon":"g_building"}},{"type":"Feature","geometry":{"type":"Point","coordinates":[137.40785764413454,34.701139841553726]},"properties":{"name":"F研究棟","icon":"f_building"}},{"type":"Feature","geometry":{"type":"Point","coordinates":[137.40783627421615,34.70167945629767]},"properties":{"name":"F2総合研究実験棟","icon":"f_building"}},{"type":"Feature","geometry":{"type":"Point","coordinates":[137.40795991445998,34.70142847313355]},"properties":{"name":"F1研究実験棟","icon":"f_building"}},{"type":"Feature","geometry":{"type":"Point","coordinates":[137.40914205624688,34.70257468377807]},"properties":{"name":"E5低層実験棟","icon":"e_building"}},{"type":"Feature","geometry":{"type":"Point","coordinates":[137.40911111526754,34.70278571763568]},"properties":{"name":"E4低層実験棟","icon":"e_building"}},{"type":"Feature","geometry":{"type":"Point","coordinates":[137.40872699776037,34.70253376712775]},"properties":{"name":"E3低層実験棟","icon":"e_building"}},{"type":"Feature","geometry":{"type":"Point","coordinates":[137.40828480996248,34.70248814569504]},"properties":{"name":"E2低層実験棟","icon":"e_building"}},{"type":"Feature","geometry":{"type":"Point","coordinates":[137.40869506205468,34.7027457500667]},"properties":{"name":"E1低層実験棟","icon":"e_building"}},{"type":"Feature","geometry":{"type":"Point","coordinates":[137.4082585287818,34.702705802834245]},"properties":{"name":"E0低層実験棟","icon":"e_building"}},{"type":"Feature","geometry":{"type":"Point","coordinates":[137.40852335230392,34.701184983169384]},"properties":{"name":"D研究棟","icon":"d_building"}},{"type":"Feature","geometry":{"type":"Point","coordinates":[137.40866393393117,34.70172291243938]},"properties":{"name":"D4大学院研究実験棟","icon":"d_building"}},{"type":"Feature","geometry":{"type":"Point","coordinates":[137.4083862418288,34.70169437516549]},"properties":{"name":"D3研究実験棟","icon":"d_building"}},{"type":"Feature","geometry":{"type":"Point","coordinates":[137.40833070341006,34.70142469744087]},"properties":{"name":"D2研究実験棟","icon":"d_building"}},{"type":"Feature","geometry":{"type":"Point","coordinates":[137.40868128968742,34.70144467359839]},"properties":{"name":"D1学生実験棟","icon":"d_building"}},{"type":"Feature","geometry":{"type":"Point","coordinates":[137.40923072635223,34.70131928771194]},"properties":{"name":"C研究棟","icon":"c_building"}},{"type":"Feature","geometry":{"type":"Point","coordinates":[137.4091191885741,34.701802318662274]},"properties":{"name":"C3研究実験棟","icon":"c_building"}},{"type":"Feature","geometry":{"type":"Point","coordinates":[137.40902336034407,34.70156467811948]},"properties":{"name":"C2研究実験棟","icon":"c_building"}},{"type":"Feature","geometry":{"type":"Point","coordinates":[137.4093862508584,34.70154013911109]},"properties":{"name":"C1学生実験棟","icon":"c_building"}},{"type":"Feature","geometry":{"type":"Point","coordinates":[137.41001090606363,34.701478784156905]},"properties":{"name":"B研究棟","icon":"b_building"}},{"type":"Feature","geometry":{"type":"Point","coordinates":[137.4099523114789,34.70186790262558]},"properties":{"name":"B3大学院研究実験棟","icon":"b_building"}},{"type":"Feature","geometry":{"type":"Point","coordinates":[137.40968508445155,34.701740516843756]},"properties":{"name":"B2研究実験棟","icon":"b_building"}},{"type":"Feature","geometry":{"type":"Point","coordinates":[137.41003561091117,34.701695575575755]},"properties":{"name":"B1学生実験棟","icon":"b_building"}},{"type":"Feature","geometry":{"type":"Point","coordinates":[137.41079627897267,34.701434406757116]},"properties":{"name":"A講義棟","icon":"a_building"}},{"type":"Feature","geometry":{"type":"Point","coordinates":[137.41062269115997,34.701980407552256]},"properties":{"name":"A2講義棟","icon":"a_building"}},{"type":"Feature","geometry":{"type":"Point","coordinates":[137.41029885466304,34.70194010608442]},"properties":{"label:ja":"A1講義棟","label:en":"A1 Building","icon":"a_building"}}]}